City_ID,City_ID,City,Country,Date,Lat,Lng,Max Temp,Humidity,Cloudiness,Wind Speed,Current Description,Rain inches (last 3 hrs),Snow inches (last 3 hrs)
0,0,Punta Arenas,CL,2019-11-12 05:34:58,-53.16,-70.91,39.2,93,88,5.82,overcast clouds,0.0,0.0
1,1,Guerrero Negro,MX,2019-11-12 05:34:59,27.97,-114.04,62.02,91,0,7.65,clear sky,0.0,0.0
2,2,Saurimo,AO,2019-11-12 05:34:59,-9.66,20.4,68.5,92,62,5.14,light rain,0.31,0.0
3,3,Saskylakh,RU,2019-11-12 05:34:59,71.97,114.09,-17.99,95,44,7.58,scattered clouds,0.0,0.0
4,4,Cancun,MX,2019-11-12 05:33:28,21.17,-86.85,77.0,100,75,11.41,broken clouds,0.0,0.0
5,5,Dawlatabad,AF,2019-11-12 05:34:59,36.41,64.91,53.87,28,0,7.38,clear sky,0.0,0.0
6,6,Cockburn Town,TC,2019-11-12 05:32:56,21.46,-71.14,81.61,77,0,15.21,light rain,0.31,0.0
7,7,Cape Town,ZA,2019-11-12 05:30:19,-33.93,18.42,66.99,88,75,16.11,broken clouds,0.0,0.0
8,8,Hilo,US,2019-11-12 05:35:00,19.71,-155.08,80.6,69,90,3.36,overcast clouds,0.0,0.0
9,9,Busselton,AU,2019-11-12 05:35:00,-33.64,115.35,78.01,21,0,6.69,clear sky,0.0,0.0
10,10,Avera,US,2019-11-12 05:35:01,33.19,-82.53,60.01,76,40,3.36,scattered clouds,0.0,0.0
11,11,Jamestown,AU,2019-11-12 05:35:01,-33.21,138.6,60.91,38,0,21.41,clear sky,0.0,0.0
12,12,Caxito,BR,2019-11-12 05:35:01,-22.65,-42.51,73.4,83,90,9.17,overcast clouds,0.0,0.0
13,13,Hermanus,ZA,2019-11-12 05:35:01,-34.42,19.24,64.0,98,100,1.99,light rain,0.94,0.0
14,14,Kutum,SD,2019-11-12 05:35:01,14.2,24.66,67.82,17,5,2.93,clear sky,0.0,0.0
15,15,Kwinana,AU,2019-11-12 05:30:44,-32.25,115.77,86.0,26,0,16.11,clear sky,0.0,0.0
16,16,Bertoua,CM,2019-11-12 05:35:02,4.58,13.68,71.49,88,100,1.54,light rain,1.13,0.0
17,17,Buluang,PH,2019-11-12 05:35:02,10.47,123.98,80.6,78,90,17.22,shower rain,0.0,0.0
18,18,Upernavik,GL,2019-11-12 05:35:02,72.79,-56.15,26.1,64,89,3.89,overcast clouds,0.0,0.0
19,19,Northam,AU,2019-11-12 05:35:03,-31.65,116.67,84.2,23,0,10.29,clear sky,0.0,0.0
20,20,Arraial Do Cabo,BR,2019-11-12 05:35:03,-22.97,-42.02,73.4,83,90,9.17,overcast clouds,0.0,0.0
21,21,Mount Isa,AU,2019-11-12 05:35:03,-20.73,139.49,100.4,7,23,9.17,few clouds,0.0,0.0
22,22,Rikitea,PF,2019-11-12 05:35:03,-23.12,-134.97,70.5,87,100,26.62,moderate rain,5.75,0.0
23,23,Alushta,UA,2019-11-12 05:35:03,44.68,34.41,61.59,79,100,10.18,overcast clouds,0.0,0.0
24,24,Bethel,US,2019-11-12 05:30:05,60.79,-161.76,37.4,93,90,5.82,overcast clouds,0.0,0.0
25,25,Ushuaia,AR,2019-11-12 05:35:04,-54.81,-68.31,44.6,87,40,11.41,scattered clouds,0.0,0.0
26,26,Coahuayana,MX,2019-11-12 05:35:04,18.62,-100.35,72.16,86,8,2.21,clear sky,0.0,0.0
27,27,Barrow,AR,2019-11-12 05:35:05,-38.31,-60.23,57.06,94,100,11.86,light rain,1.19,0.0
28,28,Kapaa,US,2019-11-12 05:35:05,22.08,-159.32,75.2,94,75,6.93,broken clouds,0.0,0.0
29,29,Bredasdorp,ZA,2019-11-12 05:35:05,-34.53,20.04,62.6,93,100,16.11,moderate rain,4.56,0.0
30,30,Samarkand,UZ,2019-11-12 05:35:05,39.65,66.98,41.0,37,0,4.7,clear sky,0.0,0.0
31,31,Longyearbyen,NO,2019-11-12 05:35:05,78.22,15.63,32.0,98,75,16.11,freezing rain,0.0,0.0
32,32,Atuona,PF,2019-11-12 05:35:06,-9.8,-139.03,79.95,65,0,4.25,clear sky,0.0,0.0
33,33,Saint-Philippe,CA,2019-11-12 05:35:06,45.36,-73.48,19.99,85,90,16.11,light snow,0.0,0.0
34,34,Aksha,RU,2019-11-12 05:35:06,50.28,113.29,13.3,40,100,16.33,overcast clouds,0.0,0.0
35,35,Tasiilaq,GL,2019-11-12 05:29:55,65.61,-37.64,35.6,80,100,35.57,light rain,0.0,0.0
36,36,Ketchikan,US,2019-11-12 05:35:07,55.34,-131.65,51.8,87,90,13.87,moderate rain,0.0,0.0
37,37,Khatanga,RU,2019-11-12 05:35:07,71.98,102.47,-5.91,98,97,7.0,light snow,0.0,0.13
38,38,Tuktoyaktuk,CA,2019-11-12 05:35:07,69.44,-133.03,3.2,84,90,14.99,light snow,0.0,0.0
39,39,Talnakh,RU,2019-11-12 05:35:07,69.49,88.39,1.4,84,40,2.24,light snow,0.0,0.0
40,40,Avarua,CK,2019-11-12 05:35:08,-21.21,-159.78,75.2,83,48,10.29,scattered clouds,0.0,0.0
41,41,Sines,PT,2019-11-12 05:35:08,37.96,-8.87,55.0,83,17,13.0,few clouds,0.0,0.0
42,42,Cidreira,BR,2019-11-12 05:35:08,-30.17,-50.22,69.1,82,66,26.08,light rain,0.75,0.0
43,43,Albany,US,2019-11-12 05:33:12,42.65,-73.75,43.0,80,90,6.93,overcast clouds,0.0,0.0
44,44,Manggar,ID,2019-11-12 05:35:08,-2.88,108.27,85.21,70,80,10.29,broken clouds,0.0,0.0
45,45,Kilindoni,TZ,2019-11-12 05:35:09,-7.91,39.67,80.62,69,30,4.72,scattered clouds,0.0,0.0
46,46,Mataura,NZ,2019-11-12 05:35:09,-46.19,168.86,57.99,64,38,3.0,scattered clouds,0.0,0.0
47,47,Vaini,IN,2019-11-12 05:35:09,15.34,74.49,80.6,61,40,9.17,scattered clouds,0.0,0.0
48,48,Butaritari,KI,2019-11-12 05:35:09,3.07,172.79,81.66,75,100,5.93,overcast clouds,0.0,0.0
49,49,Sabha,LY,2019-11-12 05:35:10,27.03,14.43,56.16,40,100,12.46,overcast clouds,0.0,0.0
50,50,Novyye Gorki,RU,2019-11-12 05:35:10,56.73,41.06,45.32,92,100,10.98,light rain,0.94,0.0
51,51,Chuy,UY,2019-11-12 05:35:10,-33.69,-53.46,60.26,83,7,10.51,clear sky,0.0,0.0
52,52,Nikolskoye,RU,2019-11-12 05:35:10,59.7,30.79,35.6,93,90,15.66,light intensity drizzle,0.0,0.0
53,53,Bindura,ZW,2019-11-12 05:35:10,-17.3,31.33,78.75,51,61,9.53,broken clouds,0.0,0.0
54,54,Aksarka,RU,2019-11-12 05:35:11,66.56,67.8,-1.57,98,85,9.64,overcast clouds,0.0,0.0
55,55,Port Lincoln,AU,2019-11-12 05:35:11,-34.72,135.86,60.01,49,81,19.69,broken clouds,0.0,0.0
56,56,Grindavik,IS,2019-11-12 05:35:11,63.84,-22.43,39.2,93,75,10.29,broken clouds,0.0,0.0
57,57,Qaqortoq,GL,2019-11-12 05:35:11,60.72,-46.03,30.2,80,100,2.24,snow,0.0,1.88
58,58,Faya,SA,2019-11-12 05:35:11,18.39,42.45,62.6,50,0,3.36,clear sky,0.0,0.0
59,59,East London,ZA,2019-11-12 05:35:12,-33.02,27.91,66.2,100,90,12.75,light rain,0.0,0.0
60,60,Ilulissat,GL,2019-11-12 05:35:12,69.22,-51.1,37.4,34,93,19.46,overcast clouds,0.0,0.0
61,61,Hithadhoo,MV,2019-11-12 05:31:41,-0.6,73.08,82.18,80,47,14.12,scattered clouds,0.0,0.0
62,62,Victor Harbor,AU,2019-11-12 05:35:12,-35.55,138.62,64.0,44,75,20.8,broken clouds,0.0,0.0
63,63,Progreso,UY,2019-11-12 05:35:13,-34.68,-56.22,63.0,77,11,6.93,few clouds,0.0,0.0
64,64,Cape Coast,GH,2019-11-12 05:35:13,5.11,-1.24,81.32,80,7,10.29,light rain,1.31,0.0
65,65,Krasnouralsk,RU,2019-11-12 05:35:13,58.36,60.04,34.56,91,100,6.2,overcast clouds,0.0,0.0
66,66,Alofi,NU,2019-11-12 05:35:13,-19.06,-169.92,77.0,78,52,4.7,broken clouds,0.0,0.0
67,67,Opuwo,,2019-11-12 05:35:14,-18.06,13.84,74.52,30,88,6.67,overcast clouds,0.0,0.0
68,68,Nabire,ID,2019-11-12 05:35:14,-3.36,135.5,89.55,53,58,4.94,broken clouds,0.0,0.0
69,69,Smidovich,RU,2019-11-12 05:35:14,48.6,133.81,25.75,53,0,19.69,clear sky,0.0,0.0
70,70,Dikson,RU,2019-11-12 05:35:14,73.51,80.55,3.33,91,35,6.89,scattered clouds,0.0,0.0
71,71,Grand Baie,MU,2019-11-12 05:35:15,-20.02,57.58,80.6,74,40,12.75,shower rain,0.0,0.0
72,72,Ust-Ilimsk,RU,2019-11-12 05:35:15,57.96,102.73,-3.63,87,100,9.53,light snow,0.0,0.13
73,73,Yeppoon,AU,2019-11-12 05:35:15,-23.13,150.74,91.4,29,4,13.87,clear sky,0.0,0.0
74,74,Roma,IT,2019-11-12 05:30:25,41.89,12.48,59.0,87,40,5.82,scattered clouds,0.0,0.0
75,75,Yazd,IR,2019-11-12 05:35:15,31.89,54.36,51.8,20,0,6.02,clear sky,0.0,0.0
76,76,Fonte Boa,BR,2019-11-12 05:35:16,-2.51,-66.09,73.45,99,100,3.18,moderate rain,6.81,0.0
77,77,Farnborough,AU,2019-11-12 05:35:16,-23.08,150.74,91.4,29,4,13.87,clear sky,0.0,0.0
78,78,Cap Malheureux,MU,2019-11-12 05:35:16,-19.98,57.61,80.6,74,40,12.75,shower rain,0.0,0.0
79,79,Mobaye,CF,2019-11-12 05:35:16,4.33,21.18,73.92,91,99,4.29,overcast clouds,0.0,0.0
80,80,Orumiyeh,IR,2019-11-12 05:34:11,37.55,45.08,39.2,51,0,6.93,clear sky,0.0,0.0
81,81,Gisborne,NZ,2019-11-12 05:35:17,-38.66,178.02,60.01,63,100,3.0,light rain,1.88,0.0
82,82,Port Alfred,ZA,2019-11-12 05:35:17,-33.59,26.89,66.99,96,99,5.99,light rain,0.69,0.0
83,83,Cherskiy,RU,2019-11-12 05:35:18,68.75,161.3,16.72,81,79,2.15,broken clouds,0.0,0.0
84,84,Kostino,BG,2019-11-12 05:35:18,41.7,25.3,57.0,100,90,1.61,fog,0.0,0.0
85,85,Faanui,PF,2019-11-12 05:35:18,-16.48,-151.75,79.27,79,3,17.78,clear sky,0.0,0.0
86,86,Puerto Ayora,EC,2019-11-12 05:34:03,-0.74,-90.35,70.0,86,0,5.01,clear sky,0.0,0.0
87,87,Ribeira Grande,PT,2019-11-12 05:35:19,38.52,-28.7,61.21,82,47,8.63,scattered clouds,0.0,0.0
88,88,Bluff,AU,2019-11-12 05:35:19,-23.58,149.07,93.47,14,3,1.28,clear sky,0.0,0.0
89,89,Adra,ES,2019-11-12 05:35:20,36.75,-3.02,59.0,44,4,9.17,clear sky,0.0,0.0
90,90,Marienburg,DE,2019-11-12 05:35:20,52.12,9.98,41.0,80,20,11.41,few clouds,0.0,0.0
91,91,Port Hawkesbury,CA,2019-11-12 05:35:20,45.62,-61.36,37.99,74,90,4.7,overcast clouds,0.0,0.0
92,92,Teguise,ES,2019-11-12 05:35:21,29.06,-13.56,68.0,82,40,23.04,scattered clouds,0.0,0.0
93,93,Pinega,RU,2019-11-12 05:35:21,64.7,43.39,21.54,94,100,12.01,snow,0.0,3.44
94,94,Ha Giang,VN,2019-11-12 05:35:21,22.83,104.99,73.53,53,1,4.94,clear sky,0.0,0.0
95,95,Port Moresby,PG,2019-11-12 05:35:21,-9.47,147.16,84.2,74,40,11.41,scattered clouds,0.0,0.0
96,96,Vanavara,RU,2019-11-12 05:35:22,60.35,102.28,-8.45,91,100,8.01,light snow,0.0,0.13
97,97,Ancud,CL,2019-11-12 05:35:22,-41.87,-73.83,46.4,100,90,3.36,overcast clouds,0.0,0.0
98,98,Banda Aceh,ID,2019-11-12 05:35:22,5.56,95.32,84.61,66,100,5.12,light rain,2.5,0.0
99,99,Cajati,BR,2019-11-12 05:35:22,-24.73,-48.11,67.01,99,100,2.53,light rain,0.87,0.0
100,100,Yueyang,CN,2019-11-12 05:35:23,29.36,113.12,68.58,54,98,1.03,overcast clouds,0.0,0.0
101,101,Sao Filipe,CV,2019-11-12 05:35:23,14.9,-24.5,74.64,76,100,18.14,overcast clouds,0.0,0.0
102,102,Nizhniy Odes,RU,2019-11-12 05:35:23,63.64,54.86,8.83,92,83,7.45,broken clouds,0.0,0.0
103,103,Christchurch,NZ,2019-11-12 05:33:38,-43.53,172.64,60.01,62,17,14.99,few clouds,0.0,0.0
104,104,Kaitangata,NZ,2019-11-12 05:35:24,-46.28,169.85,57.0,60,62,8.99,broken clouds,0.0,0.0
105,105,Klaksvik,FO,2019-11-12 05:35:24,62.23,-6.59,33.8,80,100,9.17,light snow,0.0,0.63
106,106,Batagay-Alyta,RU,2019-11-12 05:35:24,67.8,130.41,-3.7,94,100,4.45,overcast clouds,0.0,0.0
107,107,Tiksi,RU,2019-11-12 05:35:24,71.64,128.87,-11.46,89,96,6.31,overcast clouds,0.0,0.0
108,108,Vagur,FO,2019-11-12 05:35:25,61.47,-6.81,41.36,74,100,20.42,light rain,0.81,0.0
109,109,Oblivskaya,RU,2019-11-12 05:35:25,48.54,42.5,47.62,77,11,1.79,few clouds,0.0,0.0
110,110,Marsh Harbour,BS,2019-11-12 05:35:25,26.54,-77.06,77.4,68,0,14.43,light rain,0.13,0.0
111,111,Lieksa,FI,2019-11-12 05:35:25,63.32,30.02,27.77,94,87,4.56,overcast clouds,0.0,0.0
112,112,Tazovskiy,RU,2019-11-12 05:35:26,67.47,78.7,-2.93,83,100,6.26,overcast clouds,0.0,0.0
113,113,Kaeo,NZ,2019-11-12 05:35:26,-35.1,173.78,60.01,62,6,8.99,clear sky,0.0,0.0
114,114,Llangefni,GB,2019-11-12 05:35:26,53.26,-4.31,46.4,70,59,34.45,light rain,0.19,0.0
115,115,Qaanaaq,GL,2019-11-12 05:35:26,77.48,-69.36,4.6,57,0,2.89,clear sky,0.0,0.0
116,116,Lagoa,PT,2019-11-12 05:35:27,37.14,-8.45,57.0,66,17,4.7,few clouds,0.0,0.0
117,117,Nishihara,JP,2019-11-12 05:35:27,35.74,139.53,71.6,43,20,12.75,few clouds,0.0,0.0
118,118,Hobart,AU,2019-11-12 05:30:58,-42.88,147.33,55.0,50,75,21.92,light intensity shower rain,0.0,0.0
119,119,Alyangula,AU,2019-11-12 05:35:27,-13.85,136.42,93.2,49,40,10.29,scattered clouds,0.0,0.0
120,120,Touros,BR,2019-11-12 05:35:27,-5.2,-35.46,73.4,88,40,3.36,scattered clouds,0.0,0.0
121,121,Tecoanapa,MX,2019-11-12 05:35:28,16.99,-99.26,84.2,79,40,1.41,scattered clouds,0.0,0.0
122,122,Omaruru,,2019-11-12 05:35:28,-21.42,15.95,72.55,28,0,1.7,clear sky,0.0,0.0
123,123,Goianesia,BR,2019-11-12 05:35:28,-15.32,-49.12,70.2,80,97,1.95,overcast clouds,0.0,0.0
124,124,Castro,CL,2019-11-12 05:35:28,-42.48,-73.76,46.4,100,90,3.36,overcast clouds,0.0,0.0
125,125,Melito Di Porto Salvo,IT,2019-11-12 05:35:29,37.92,15.77,62.6,87,20,9.17,shower rain,0.0,0.0
126,126,Vinh Yen,VN,2019-11-12 05:35:29,21.31,105.6,80.6,54,20,3.36,few clouds,0.0,0.0
127,127,Airai,TL,2019-11-12 05:35:29,-8.93,125.41,85.1,37,0,8.57,clear sky,0.0,0.0
128,128,Vieux Fort,LC,2019-11-12 05:35:29,13.72,-60.95,82.4,78,75,19.46,broken clouds,0.0,0.0
129,129,Thompson,CA,2019-11-12 05:35:29,55.74,-97.86,1.4,77,75,10.29,broken clouds,0.0,0.0
130,130,Lorengau,PG,2019-11-12 05:35:30,-2.02,147.27,80.22,83,100,15.41,light rain,2.13,0.0
131,131,Raduzhnyy,RU,2019-11-12 05:35:30,62.1,77.47,14.94,90,98,7.52,light snow,0.0,0.19
132,132,Liwale,TZ,2019-11-12 05:35:30,-9.8,37.92,79.29,60,75,5.75,broken clouds,0.0,0.0
133,133,Pangnirtung,CA,2019-11-12 05:35:30,66.15,-65.72,18.32,72,100,4.47,overcast clouds,0.0,0.0
134,134,Esperance,AU,2019-11-12 05:35:31,-33.86,121.89,66.2,48,0,18.34,clear sky,0.0,0.0
135,135,Champasak,LA,2019-11-12 05:35:31,14.89,105.88,78.8,78,75,6.93,broken clouds,0.0,0.0
136,136,Bana,CM,2019-11-12 05:35:31,5.14,10.29,67.62,97,100,2.66,light rain,0.13,0.0
137,137,Ostrovnoy,RU,2019-11-12 05:35:31,68.05,39.51,21.4,88,100,11.86,overcast clouds,0.0,0.0
138,138,Hambantota,LK,2019-11-12 05:35:32,6.12,81.12,86.0,74,20,2.24,few clouds,0.0,0.0
139,139,Port Elizabeth,US,2019-11-12 05:35:32,39.31,-74.98,59.0,66,1,4.7,clear sky,0.0,0.0
140,140,Aswan,EG,2019-11-12 05:35:32,24.09,32.9,71.6,60,0,8.05,clear sky,0.0,0.0
141,141,Forestville,CA,2019-11-12 05:35:33,48.74,-69.09,19.4,85,90,5.82,light snow,0.0,0.0
142,142,Tamiahua,MX,2019-11-12 05:35:33,21.28,-97.45,77.16,83,17,7.83,light rain,0.19,0.0
143,143,Lasa,CY,2019-11-12 05:35:33,34.92,32.53,71.6,34,0,4.7,clear sky,0.0,0.0
144,144,Grand Gaube,MU,2019-11-12 05:35:33,-20.01,57.66,80.6,74,40,12.75,shower rain,0.0,0.0
145,145,Katsuura,JP,2019-11-12 05:35:34,33.93,134.5,68.0,49,20,11.41,few clouds,0.0,0.0
146,146,Haines Junction,CA,2019-11-12 05:35:34,60.75,-137.51,11.23,93,100,3.8,overcast clouds,0.0,0.0
147,147,Becej,RS,2019-11-12 05:35:34,45.62,20.05,52.02,66,97,11.56,overcast clouds,0.0,0.0
148,148,Riyadh,SA,2019-11-12 05:35:34,24.63,46.72,66.2,68,46,2.24,scattered clouds,0.0,0.0
149,149,Mar Del Plata,AR,2019-11-12 05:35:35,-46.43,-67.52,50.41,89,0,6.51,clear sky,0.0,0.0
150,150,Mazatlan,MX,2019-11-12 05:30:58,23.22,-106.42,80.01,61,90,3.36,overcast clouds,0.0,0.0
151,151,Chokurdakh,RU,2019-11-12 05:35:35,70.62,147.9,10.83,95,100,4.88,light snow,0.0,0.69
152,152,Georgetown,GY,2019-11-12 05:35:35,6.8,-58.16,75.2,100,20,10.94,mist,0.0,0.0
153,153,Bathsheba,BB,2019-11-12 05:35:36,13.22,-59.52,78.8,83,75,13.87,shower rain,0.0,0.0
154,154,Tura,RU,2019-11-12 05:35:36,64.27,100.22,-16.53,91,90,2.28,overcast clouds,0.0,0.0
155,155,Yellowknife,CA,2019-11-12 05:35:36,62.45,-114.38,8.6,84,90,8.05,light snow,0.0,0.0
156,156,Payakumbuh,ID,2019-11-12 05:35:36,-0.23,100.63,87.03,51,95,0.47,light rain,1.13,0.0
157,157,Hervey Bay,AU,2019-11-12 05:35:36,-25.3,152.85,82.0,51,0,21.92,clear sky,0.0,0.0
158,158,Codrington,AU,2019-11-12 05:35:37,-28.95,153.24,100.4,7,0,17.22,clear sky,0.0,0.0
159,159,Puerto Escondido,MX,2019-11-12 05:35:37,15.86,-97.07,70.77,93,12,2.71,light rain,0.13,0.0
160,160,Adamas,GR,2019-11-12 05:35:37,36.73,24.43,71.6,49,0,18.34,clear sky,0.0,0.0
161,161,Amapa,HN,2019-11-12 05:35:38,15.09,-87.97,75.2,88,75,2.13,broken clouds,0.0,0.0
162,162,Khor,RU,2019-11-12 05:35:38,47.88,134.96,26.62,51,0,16.89,clear sky,0.0,0.0
163,163,Saint George,GR,2019-11-12 05:35:38,39.45,22.34,59.0,87,75,1.88,broken clouds,0.0,0.0
164,164,Kodiak,US,2019-11-12 05:35:39,39.95,-94.76,12.0,72,1,8.05,clear sky,0.0,0.0
165,165,La Ronge,CA,2019-11-12 05:35:39,55.1,-105.3,8.6,71,40,6.93,scattered clouds,0.0,0.0
166,166,Ponta Do Sol,BR,2019-11-12 05:35:39,-20.63,-46.0,65.1,94,93,2.13,overcast clouds,0.0,0.0
167,167,Tselinnoye,UA,2019-11-12 05:35:39,45.9,34.18,55.15,81,29,3.96,scattered clouds,0.0,0.0
168,168,San Patricio,PY,2019-11-12 05:35:40,-26.98,-56.83,69.04,93,88,5.46,overcast clouds,0.0,0.0
169,169,Salta,AR,2019-11-12 05:35:40,-24.79,-65.41,71.6,88,75,1.25,broken clouds,0.0,0.0
170,170,Srandakan,ID,2019-11-12 05:35:40,-7.94,110.25,88.38,53,57,13.42,broken clouds,0.0,0.0
171,171,Lebu,ET,2019-11-12 05:35:40,8.96,38.73,59.0,67,20,12.75,few clouds,0.0,0.0
172,172,New Norfolk,AU,2019-11-12 05:35:41,-42.78,147.06,55.0,50,75,21.92,light intensity shower rain,0.0,0.0
173,173,Rio Grande,BR,2019-11-12 05:33:25,-32.03,-52.1,64.99,92,56,5.99,broken clouds,0.0,0.0
174,174,Nouakchott,MR,2019-11-12 05:33:04,18.08,-15.98,66.2,29,0,13.87,clear sky,0.0,0.0
175,175,Tarrafal,CV,2019-11-12 05:35:41,15.28,-23.77,75.2,73,20,21.92,few clouds,0.0,0.0
176,176,San Jose,HN,2019-11-12 05:35:41,14.25,-87.96,62.17,95,0,6.38,clear sky,0.0,0.0
177,177,Kieta,PG,2019-11-12 05:35:42,-6.22,155.63,83.91,71,52,9.06,broken clouds,0.0,0.0
178,178,Maputo,MZ,2019-11-12 05:35:07,-25.97,32.57,73.99,94,75,8.05,light rain,0.0,0.0
179,179,Dunedin,NZ,2019-11-12 05:31:05,-45.87,170.5,53.01,53,60,11.99,broken clouds,0.0,0.0
180,180,Vestmanna,FO,2019-11-12 05:35:42,62.16,-7.17,33.8,80,100,9.17,light snow,0.0,0.44
181,181,Lompoc,US,2019-11-12 05:35:42,34.64,-120.46,57.2,100,90,4.7,light rain,0.0,0.0
182,182,Lata,IN,2019-11-12 05:35:42,30.78,78.62,39.9,25,100,6.64,overcast clouds,0.0,0.0
183,183,Hofn,IS,2019-11-12 05:35:43,64.25,-15.21,40.44,69,100,19.26,light snow,0.0,0.19
184,184,Hirara,JP,2019-11-12 05:35:43,24.8,125.28,77.0,60,40,9.17,scattered clouds,0.0,0.0
185,185,Tual,ID,2019-11-12 05:35:44,-5.67,132.75,84.69,64,33,7.61,scattered clouds,0.0,0.0
186,186,Santa Luzia,BR,2019-11-12 05:35:44,-19.77,-43.85,73.4,82,100,10.29,light rain,0.19,0.0
187,187,Saint-Pierre,FR,2019-11-12 05:35:44,48.95,4.24,41.0,100,90,14.99,overcast clouds,0.0,0.0
188,188,Hasaki,JP,2019-11-12 05:35:44,35.73,140.83,73.0,37,20,14.99,few clouds,0.0,0.0
189,189,Cabedelo,BR,2019-11-12 05:35:44,-6.97,-34.84,73.4,88,20,3.36,few clouds,0.0,0.0
190,190,Bambous Virieux,MU,2019-11-12 05:35:44,-20.34,57.76,80.6,74,40,12.75,shower rain,0.0,0.0
191,191,Mehamn,NO,2019-11-12 05:35:45,71.03,27.85,24.8,78,94,6.93,overcast clouds,0.0,0.0
192,192,Luderitz,,2019-11-12 05:35:45,-26.65,15.16,62.6,72,0,6.93,clear sky,0.0,0.0
193,193,Lyuban,BY,2019-11-12 05:35:46,52.8,28.0,37.42,93,19,5.79,few clouds,0.0,0.0
194,194,Thinadhoo,MV,2019-11-12 05:35:46,0.53,72.93,82.8,78,50,11.56,scattered clouds,0.0,0.0
195,195,Gat,SN,2019-11-12 05:35:46,14.69,-16.54,71.6,64,29,14.99,scattered clouds,0.0,0.0
196,196,Victoria,BN,2019-11-12 05:35:46,5.28,115.24,89.6,70,75,10.29,broken clouds,0.0,0.0
197,197,Sobolevo,RU,2019-11-12 05:35:46,54.43,31.9,38.25,89,85,6.62,overcast clouds,0.0,0.0
198,198,Sovetskiy,RU,2019-11-12 05:35:46,56.76,48.47,34.03,96,100,13.31,overcast clouds,0.0,0.0
199,199,Tolaga Bay,NZ,2019-11-12 05:35:47,-38.37,178.3,57.18,63,99,3.4,light rain,0.44,0.0
200,200,Belaya Gora,RU,2019-11-12 05:35:47,68.54,146.19,-3.38,98,87,3.31,overcast clouds,0.0,0.0
201,201,Arica,CL,2019-11-12 05:35:47,-18.48,-70.32,66.2,72,75,2.24,broken clouds,0.0,0.0
202,202,Yarmouth,CA,2019-11-12 05:35:47,43.84,-66.12,48.99,87,90,13.87,overcast clouds,0.0,0.0
203,203,Agadez,NE,2019-11-12 05:35:48,16.97,7.99,75.2,12,14,11.41,few clouds,0.0,0.0
204,204,Cuamba,MZ,2019-11-12 05:35:48,-14.8,36.54,85.08,49,26,5.73,scattered clouds,0.0,0.0
205,205,Russell,US,2019-11-12 05:35:48,38.9,-98.86,8.6,78,1,3.36,clear sky,0.0,0.0
206,206,Nago,IT,2019-11-12 05:35:48,45.88,10.89,52.0,100,75,2.24,broken clouds,0.0,0.0
207,207,New Ulm,US,2019-11-12 05:33:20,44.31,-94.46,8.6,71,1,9.17,clear sky,0.0,0.0
208,208,Huanuco,PE,2019-11-12 05:35:49,-9.93,-76.24,46.6,94,99,1.03,light rain,0.94,0.0
209,209,Hay River,CA,2019-11-12 05:35:49,60.82,-115.79,12.2,85,20,9.17,few clouds,0.0,0.0
210,210,Bonthe,SL,2019-11-12 05:35:49,7.53,-12.5,78.26,85,88,6.38,overcast clouds,0.0,0.0
211,211,Carnarvon,ZA,2019-11-12 05:35:49,-30.97,22.13,63.09,40,0,5.06,clear sky,0.0,0.0
212,212,Gamba,CN,2019-11-12 05:35:49,28.28,88.52,38.7,20,0,4.72,clear sky,0.0,0.0
213,213,Chiguayante,CL,2019-11-12 05:35:49,-36.93,-73.02,55.4,93,90,2.24,overcast clouds,0.0,0.0
214,214,Xining,CN,2019-11-12 05:35:50,36.62,101.77,38.19,41,94,8.12,light snow,0.0,0.13
215,215,Aitape,PG,2019-11-12 05:35:50,-3.15,142.36,82.83,79,100,16.93,overcast clouds,0.0,0.0
216,216,Vila Velha,BR,2019-11-12 05:35:50,-3.71,-38.6,80.6,74,75,13.87,broken clouds,0.0,0.0
217,217,Beckley,US,2019-11-12 05:35:51,37.78,-81.19,51.8,81,90,9.17,light rain,0.0,0.0
218,218,Spornoye,RU,2019-11-12 05:35:51,50.84,37.29,48.2,93,90,4.47,mist,0.0,0.0
219,219,Sinnamary,GF,2019-11-12 05:35:51,5.38,-52.96,81.48,82,51,12.46,broken clouds,0.0,0.0
220,220,Torbay,CA,2019-11-12 05:35:51,47.66,-52.73,36.0,86,75,9.17,broken clouds,0.0,0.0
221,221,Del Rio,US,2019-11-12 05:35:51,29.36,-100.9,39.2,64,90,17.22,light rain,0.0,0.0
222,222,Naze,NG,2019-11-12 05:35:52,5.43,7.07,74.88,92,96,1.61,overcast clouds,0.0,0.0
223,223,Makakilo City,US,2019-11-12 05:35:52,21.35,-158.09,80.6,78,20,3.36,few clouds,0.0,0.0
224,224,Cayenne,GF,2019-11-12 05:35:52,4.94,-52.33,75.2,94,44,3.36,heavy intensity rain,0.0,0.0
225,225,Fortuna,US,2019-11-12 05:35:52,40.6,-124.16,53.01,100,90,8.05,overcast clouds,0.0,0.0
226,226,Alice Springs,AU,2019-11-12 05:35:52,-23.7,133.88,96.8,7,5,11.41,clear sky,0.0,0.0
227,227,Prescott Valley,US,2019-11-12 05:35:53,34.61,-112.32,57.0,43,1,6.93,clear sky,0.0,0.0
228,228,Baoding,CN,2019-11-12 05:35:53,38.86,115.49,66.16,24,24,3.51,few clouds,0.0,0.0
229,229,Taloqan,AF,2019-11-12 05:35:53,36.74,69.54,45.25,53,94,4.52,overcast clouds,0.0,0.0
230,230,Leningradskiy,RU,2019-11-12 05:35:53,69.38,178.42,28.67,95,100,15.01,light snow,0.0,0.38
231,231,Mataram,ID,2019-11-12 05:35:53,-5.32,105.06,88.41,58,87,3.53,light rain,1.06,0.0
232,232,Yangzhou,CN,2019-11-12 05:35:54,32.39,119.44,70.0,51,97,1.01,overcast clouds,0.0,0.0
233,233,Mwinilunga,ZM,2019-11-12 05:35:54,-11.73,24.43,67.15,91,94,3.13,light rain,0.31,0.0
234,234,Okhotsk,RU,2019-11-12 05:35:54,59.36,143.24,7.07,73,10,11.34,clear sky,0.0,0.0
235,235,Mahebourg,MU,2019-11-12 05:35:54,-20.41,57.7,80.6,74,40,12.75,shower rain,0.0,0.0
236,236,Kahului,US,2019-11-12 05:35:55,20.89,-156.47,75.99,88,75,9.17,light rain,0.0,0.0
237,237,Hibbing,US,2019-11-12 05:35:55,47.43,-92.94,3.2,91,1,4.7,clear sky,0.0,0.0
238,238,Honningsvag,NO,2019-11-12 05:35:55,70.98,25.97,24.8,73,100,19.46,overcast clouds,0.0,0.0
239,239,Souillac,FR,2019-11-12 05:35:55,45.6,-0.6,44.6,100,80,6.93,light rain,0.31,0.0
240,240,Klyuchi,RU,2019-11-12 05:35:56,52.25,79.17,27.05,44,100,16.15,overcast clouds,0.0,0.0
241,241,Iquique,CL,2019-11-12 05:31:15,-20.22,-70.14,62.6,77,91,4.7,overcast clouds,0.0,0.0
242,242,Svetlogorsk,RU,2019-11-12 05:35:56,53.14,59.15,26.6,86,87,13.42,overcast clouds,0.0,0.0
243,243,Ovalle,CL,2019-11-12 05:35:56,-30.6,-71.2,51.89,79,0,1.12,clear sky,0.0,0.0
244,244,Manado,ID,2019-11-12 05:35:56,1.49,124.85,91.4,59,20,11.41,few clouds,0.0,0.0
245,245,Conneaut,US,2019-11-12 05:35:56,41.95,-80.55,30.99,86,90,23.04,light rain,0.0,0.0
246,246,Port Pirie,AU,2019-11-12 05:35:57,-33.18,138.01,64.4,42,7,23.04,clear sky,0.0,0.0
247,247,Broome,GB,2019-11-12 05:35:57,52.47,1.45,39.99,86,42,13.87,scattered clouds,0.0,0.0
248,248,Havoysund,NO,2019-11-12 05:35:57,71.0,24.66,24.8,73,100,36.91,overcast clouds,0.0,0.0
249,249,Dharchula,IN,2019-11-12 05:35:57,29.85,80.53,60.24,17,100,5.53,overcast clouds,0.0,0.0
250,250,Hobyo,SO,2019-11-12 05:35:57,5.35,48.53,82.58,63,12,15.61,few clouds,0.0,0.0
251,251,Port Blair,IN,2019-11-12 05:35:58,11.67,92.75,86.0,70,20,8.05,few clouds,0.0,0.0
252,252,Kalmunai,LK,2019-11-12 05:31:04,7.42,81.82,81.55,67,0,4.09,clear sky,0.0,0.0
253,253,Novosergiyevka,RU,2019-11-12 05:35:58,52.08,53.65,35.91,77,88,10.8,overcast clouds,0.0,0.0
254,254,Vanino,RU,2019-11-12 05:35:58,53.93,40.55,46.99,95,100,5.99,overcast clouds,0.0,0.0
255,255,Rawson,AR,2019-11-12 05:35:58,-43.3,-65.11,56.07,84,77,5.88,broken clouds,0.0,0.0
256,256,Jinchang,CN,2019-11-12 05:35:59,38.52,102.19,32.34,61,100,6.55,overcast clouds,0.0,0.0
257,257,Kupang,ID,2019-11-12 05:35:59,-10.16,123.6,89.6,59,20,11.41,few clouds,0.0,0.0
258,258,Micheweni,TZ,2019-11-12 05:36:00,-4.97,39.83,79.93,78,50,14.36,scattered clouds,0.0,0.0
259,259,Wewak,PG,2019-11-12 05:36:00,-3.55,143.63,79.09,85,100,12.48,overcast clouds,0.0,0.0
260,260,Salinopolis,BR,2019-11-12 05:36:00,-0.61,-47.36,81.27,80,0,14.05,clear sky,0.0,0.0
261,261,San Jose Iturbide,MX,2019-11-12 05:36:00,21.0,-100.38,60.8,72,75,8.05,broken clouds,0.0,0.0
262,262,Zhengjiatun,CN,2019-11-12 05:36:00,43.51,123.51,51.22,44,50,14.18,scattered clouds,0.0,0.0
263,263,Teya,MX,2019-11-12 05:36:00,21.05,-89.07,81.0,88,5,4.7,clear sky,0.0,0.0
264,264,La Palma,CO,2019-11-12 05:36:01,5.36,-74.39,66.85,97,84,2.21,light rain,0.25,0.0
265,265,San Luis,AR,2019-11-12 05:36:01,-33.3,-66.34,75.2,40,88,8.57,overcast clouds,0.0,0.0
266,266,Petropavlovsk-Kamchatskiy,RU,2019-11-12 05:36:01,53.05,158.65,35.6,55,1,8.95,clear sky,0.0,0.0
267,267,Labuan,BN,2019-11-12 05:35:46,5.28,115.24,89.6,70,75,10.29,broken clouds,0.0,0.0
268,268,Zeya,RU,2019-11-12 05:36:01,53.74,127.27,6.1,79,96,11.86,overcast clouds,0.0,0.0
269,269,Cairns,AU,2019-11-12 05:33:25,-16.92,145.77,86.0,51,0,14.99,clear sky,0.0,0.0
270,270,Saldanha,PT,2019-11-12 05:36:02,41.42,-6.55,39.36,94,33,1.74,scattered clouds,0.0,0.0
271,271,Minsk,BY,2019-11-12 05:31:55,53.9,27.56,33.8,100,90,4.47,fog,0.0,0.0
272,272,Dicabisagan,PH,2019-11-12 05:36:02,17.08,122.42,77.49,77,99,15.43,light rain,0.69,0.0
273,273,Clyde River,CA,2019-11-12 05:36:02,70.47,-68.59,14.0,92,90,29.97,snow,0.0,0.0
274,274,Aquiraz,BR,2019-11-12 05:36:03,-3.9,-38.39,80.6,74,75,13.87,broken clouds,0.0,0.0
275,275,Kasane,BW,2019-11-12 05:36:03,-17.8,25.16,69.8,88,75,10.29,thunderstorm,0.0,0.0
276,276,Samarai,PG,2019-11-12 05:36:03,-10.62,150.67,78.22,75,95,9.57,light rain,0.13,0.0
277,277,Columbus,US,2019-11-12 05:32:44,32.46,-84.99,62.6,100,90,4.7,overcast clouds,0.0,0.0
278,278,Norman Wells,CA,2019-11-12 05:36:04,65.28,-126.83,21.2,92,75,8.05,light snow,0.0,0.0
279,279,Kaili,ID,2019-11-12 05:36:04,-3.46,120.21,70.38,89,99,0.65,moderate rain,4.56,0.0
280,280,Anadyr,RU,2019-11-12 05:36:04,64.73,177.51,35.6,88,75,24.61,broken clouds,0.0,0.0
281,281,Evensk,RU,2019-11-12 05:36:04,61.92,159.24,26.67,96,100,4.74,light snow,0.0,0.69
282,282,Los Alamos,US,2019-11-12 05:36:05,35.88,-106.3,27.0,67,1,13.87,clear sky,0.0,0.0
283,283,Tiete,BR,2019-11-12 05:36:05,-23.1,-47.71,70.0,77,20,12.75,few clouds,0.0,0.0
284,284,Qasigiannguit,GL,2019-11-12 05:36:05,68.82,-51.19,37.4,34,93,19.46,overcast clouds,0.0,0.0
285,285,Necochea,AR,2019-11-12 05:36:05,-38.55,-58.74,60.01,94,100,11.99,light rain,1.19,0.0
286,286,Mount Gambier,AU,2019-11-12 05:36:06,-37.83,140.78,50.0,81,75,26.4,light intensity shower rain,0.0,0.0
287,287,High Rock,BS,2019-11-12 05:36:06,26.63,-78.28,77.59,72,2,15.61,clear sky,0.0,0.0
288,288,Vestmannaeyjar,IS,2019-11-12 05:36:06,63.44,-20.27,42.46,82,61,14.92,light rain,1.31,0.0
289,289,Santa Barbara,US,2019-11-12 05:36:06,34.42,-119.7,59.0,93,1,5.64,clear sky,0.0,0.0
290,290,Dhidhdhoo,MV,2019-11-12 05:36:06,6.88,73.1,83.55,71,10,8.57,clear sky,0.0,0.0
291,291,Rio Gallegos,AR,2019-11-12 05:36:07,-51.62,-69.22,44.6,87,4,2.24,clear sky,0.0,0.0
292,292,Narrabri,AU,2019-11-12 05:36:07,-30.33,149.78,98.6,5,0,20.8,clear sky,0.0,0.0
293,293,Kavaratti,IN,2019-11-12 05:36:07,10.57,72.64,84.2,74,20,5.82,few clouds,0.0,0.0
294,294,Biri,HU,2019-11-12 05:36:07,47.81,21.85,41.0,93,83,6.93,broken clouds,0.0,0.0
295,295,Saquarema,BR,2019-11-12 05:36:07,-22.93,-42.51,73.4,83,90,9.17,overcast clouds,0.0,0.0
296,296,Aklavik,CA,2019-11-12 05:36:08,68.22,-135.01,14.0,85,90,8.05,light snow,0.0,0.0
297,297,Raton,US,2019-11-12 05:36:08,36.9,-104.44,19.0,78,1,4.7,clear sky,0.0,0.0
298,298,San Policarpo,PH,2019-11-12 05:36:08,12.18,125.51,77.97,87,100,14.72,light rain,0.5,0.0
299,299,Bitung,ID,2019-11-12 05:36:08,1.44,125.19,91.4,59,20,11.41,few clouds,0.0,0.0
300,300,Freeport,BS,2019-11-12 05:36:08,26.54,-78.7,77.59,72,2,15.61,clear sky,0.0,0.0
301,301,Paamiut,GL,2019-11-12 05:36:09,61.99,-49.67,26.64,53,100,4.79,overcast clouds,0.0,0.0
302,302,Meulaboh,ID,2019-11-12 05:36:09,4.14,96.13,81.14,74,29,3.65,scattered clouds,0.0,0.0
303,303,Paramonga,PE,2019-11-12 05:36:09,-10.68,-77.82,62.22,92,100,9.53,overcast clouds,0.0,0.0
304,304,Yerbogachen,RU,2019-11-12 05:36:09,61.28,108.01,-12.48,90,99,9.01,overcast clouds,0.0,0.0
305,305,Biak,ID,2019-11-12 05:36:09,-0.91,122.88,84.09,68,14,5.86,light rain,2.38,0.0
306,306,Sena Madureira,BR,2019-11-12 05:32:36,-9.07,-68.66,72.48,98,98,1.92,overcast clouds,0.0,0.0
307,307,Yar-Sale,RU,2019-11-12 05:36:10,66.83,70.83,3.76,96,100,8.14,light snow,0.0,0.31
308,308,Svetlaya,RU,2019-11-12 05:36:10,46.54,138.33,41.23,38,0,14.45,clear sky,0.0,0.0
309,309,Kirakira,SB,2019-11-12 05:36:10,-10.46,161.92,81.18,80,82,9.51,light rain,1.37,0.0
310,310,Flinders,AU,2019-11-12 05:36:10,-34.58,150.85,96.01,7,75,17.22,smoke,0.0,0.0
311,311,Mbaiki,CF,2019-11-12 05:36:10,3.87,17.99,72.72,85,89,3.83,overcast clouds,0.0,0.0
312,312,Esmeraldas,BR,2019-11-12 05:36:11,-19.76,-44.31,73.4,82,100,10.29,light rain,0.56,0.0
313,313,Kruisfontein,ZA,2019-11-12 05:36:11,-34.0,24.73,65.01,93,100,7.23,light rain,0.75,0.0
314,314,Paracatu,BR,2019-11-12 05:36:11,-17.22,-46.87,73.53,68,82,2.44,broken clouds,0.0,0.0
315,315,Lethem,GY,2019-11-12 05:36:11,3.38,-59.8,80.55,69,11,7.47,few clouds,0.0,0.0
316,316,Pevek,RU,2019-11-12 05:36:11,69.7,170.27,10.78,94,47,2.24,scattered clouds,0.0,0.0
317,317,Marsa Matruh,EG,2019-11-12 05:36:12,31.35,27.25,60.8,87,0,14.5,clear sky,0.0,0.0
318,318,Omboue,GA,2019-11-12 05:36:12,-1.57,9.26,74.01,96,100,3.2,moderate rain,7.44,0.0
319,319,Nuevitas,CU,2019-11-12 05:36:12,21.55,-77.27,73.4,94,20,5.82,few clouds,0.0,0.0
320,320,Los Llanos De Aridane,ES,2019-11-12 05:36:12,28.66,-17.92,68.0,72,90,17.22,overcast clouds,0.0,0.0
321,321,Saint-Leu,RE,2019-11-12 05:36:12,-21.15,55.28,82.4,54,30,3.36,scattered clouds,0.0,0.0
322,322,Itarema,BR,2019-11-12 05:36:12,-2.92,-39.92,75.36,83,27,7.72,scattered clouds,0.0,0.0
323,323,Flin Flon,CA,2019-11-12 05:36:13,54.77,-101.88,5.61,82,9,11.12,clear sky,0.0,0.0
324,324,Provideniya,RU,2019-11-12 05:36:13,64.42,-173.23,35.6,98,75,15.66,extreme rain,0.0,0.0
325,325,Dawei,MM,2019-11-12 05:36:13,14.07,98.19,81.86,72,0,10.71,clear sky,0.0,0.0
326,326,Tongliao,CN,2019-11-12 05:36:13,43.61,122.27,53.87,48,50,15.21,scattered clouds,0.0,0.0
327,327,Teahupoo,PF,2019-11-12 05:36:13,-17.83,-149.27,80.6,69,20,5.82,few clouds,0.0,0.0
328,328,Usinsk,RU,2019-11-12 05:36:14,66.0,57.56,-5.23,94,0,13.13,clear sky,0.0,0.0
329,329,Bonavista,CA,2019-11-12 05:36:14,48.65,-53.11,33.01,84,40,8.01,scattered clouds,0.0,0.0
330,330,Anakapalle,IN,2019-11-12 05:32:21,17.69,83.0,86.0,58,20,11.41,haze,0.0,0.0
331,331,Constitucion,MX,2019-11-12 05:36:14,23.99,-104.67,57.13,73,100,3.4,light rain,0.31,0.0
332,332,Cabo San Lucas,MX,2019-11-12 05:36:15,22.89,-109.91,73.0,82,40,5.86,scattered clouds,0.0,0.0
333,333,Tautira,PF,2019-11-12 05:36:15,-17.73,-149.15,80.6,69,20,5.82,few clouds,0.0,0.0
334,334,Sibolga,ID,2019-11-12 05:36:15,1.74,98.78,85.64,58,87,5.84,overcast clouds,0.0,0.0
335,335,Manapla,PH,2019-11-12 05:36:15,10.92,123.13,81.88,77,100,12.77,light rain,1.12,0.0
336,336,Kant,KG,2019-11-12 05:36:15,42.89,74.85,30.2,100,40,2.24,mist,0.0,0.0
337,337,Esmeralda,CL,2019-11-12 05:36:16,-34.33,-70.9,55.51,90,60,1.83,broken clouds,0.0,0.0
338,338,Sistranda,NO,2019-11-12 05:36:16,63.73,8.83,28.0,73,26,10.29,scattered clouds,0.0,0.0
339,339,Kavieng,PG,2019-11-12 05:36:16,-2.57,150.8,79.68,80,100,28.99,moderate rain,9.19,0.0
340,340,Sao Joao Da Barra,BR,2019-11-12 05:36:16,-21.64,-41.05,70.59,93,100,4.99,moderate rain,4.63,0.0
341,341,Vilhena,BR,2019-11-12 05:36:17,-12.74,-60.15,69.1,99,100,1.32,overcast clouds,0.0,0.0
342,342,Bongaree,AU,2019-11-12 05:32:10,-27.08,153.16,91.0,69,0,26.4,clear sky,0.0,0.0
343,343,Beloha,MG,2019-11-12 05:36:17,-25.17,45.06,79.36,60,95,17.31,overcast clouds,0.0,0.0
344,344,Pyay,MM,2019-11-12 05:36:17,18.82,95.22,85.23,69,0,2.64,clear sky,0.0,0.0
345,345,Havre-Saint-Pierre,CA,2019-11-12 05:36:17,50.23,-63.6,15.8,85,75,4.7,broken clouds,0.0,0.0
346,346,Taber,CA,2019-11-12 05:36:18,49.79,-112.14,37.0,59,75,28.86,broken clouds,0.0,0.0
347,347,Mayaky,UA,2019-11-12 05:36:18,47.44,29.56,48.13,76,29,10.74,scattered clouds,0.0,0.0
348,348,Namatanai,PG,2019-11-12 05:36:18,-3.66,152.44,77.81,92,100,21.88,moderate rain,10.75,0.0
349,349,Yairipok,IN,2019-11-12 05:36:18,24.67,94.07,75.2,73,75,3.36,broken clouds,0.0,0.0
350,350,Buraydah,SA,2019-11-12 05:36:19,26.33,43.97,60.8,100,75,13.87,moderate rain,0.0,0.0
351,351,Praia Da Vitoria,PT,2019-11-12 05:36:19,38.73,-27.07,55.4,93,20,12.15,few clouds,0.0,0.0
352,352,Puerto Ayacucho,CO,2019-11-12 05:36:19,5.66,-67.63,72.57,96,44,2.15,scattered clouds,0.0,0.0
353,353,Camopi,GF,2019-11-12 05:36:19,3.17,-52.33,70.54,99,17,1.1,few clouds,0.0,0.0
354,354,Saint-Joseph,FR,2019-11-12 05:36:19,43.56,6.97,50.0,100,22,4.7,few clouds,0.0,0.0
355,355,Baghdad,IQ,2019-11-12 05:36:19,33.3,44.38,60.8,55,0,2.24,mist,0.0,0.0
356,356,Ust-Tarka,RU,2019-11-12 05:36:20,55.56,75.71,28.31,92,100,14.23,light snow,0.0,1.06
357,357,Batemans Bay,AU,2019-11-12 05:36:20,-35.71,150.18,75.99,67,34,11.01,scattered clouds,0.0,0.0
358,358,Burnie,AU,2019-11-12 05:36:20,-41.05,145.91,50.0,69,81,17.0,light rain,0.13,0.0
359,359,Coihaique,CL,2019-11-12 05:36:20,-45.58,-72.07,53.6,76,0,5.82,clear sky,0.0,0.0
360,360,Sokolo,ML,2019-11-12 05:36:20,14.74,-6.12,72.97,11,0,11.01,clear sky,0.0,0.0
361,361,Vila Franca Do Campo,PT,2019-11-12 05:36:21,37.72,-25.43,59.0,87,75,3.36,broken clouds,0.0,0.0
362,362,Chaiya,IN,2019-11-12 05:36:21,29.28,74.48,78.42,19,100,0.16,overcast clouds,0.0,0.0
363,363,Santiago,PH,2019-11-12 05:36:03,16.69,121.54,74.84,89,97,3.6,light rain,1.19,0.0
364,364,Saint-Augustin,CA,2019-11-12 05:36:22,45.63,-73.98,19.99,85,90,8.05,light snow,0.0,0.0
365,365,Pareora,NZ,2019-11-12 05:36:22,-44.49,171.21,57.0,65,53,5.99,broken clouds,0.0,0.0
366,366,San Cristobal,HN,2019-11-12 05:36:22,14.68,-86.92,64.72,95,26,1.28,light rain,0.25,0.0
367,367,Bontoc,PH,2019-11-12 05:36:22,17.09,120.98,67.05,87,100,2.62,light rain,0.69,0.0
368,368,Narsaq,GL,2019-11-12 05:36:22,60.91,-46.05,30.2,80,100,2.24,light snow,0.0,1.13
369,369,Severomuysk,RU,2019-11-12 05:36:23,56.17,113.57,-11.42,86,58,3.13,broken clouds,0.0,0.0
370,370,Melita,CA,2019-11-12 05:36:23,49.27,-100.98,-0.01,86,7,3.0,clear sky,0.0,0.0
371,371,Innisfail,AU,2019-11-12 05:36:23,-17.52,146.03,86.0,24,0,5.99,clear sky,0.0,0.0
372,372,Santa Cruz,BR,2019-11-12 05:36:23,-6.22,-36.02,69.12,92,17,8.81,few clouds,0.0,0.0
373,373,Saint-Jean-De-Maurienne,FR,2019-11-12 05:36:23,45.28,6.35,41.0,93,90,1.12,overcast clouds,0.0,0.0
374,374,Zvenigovo,RU,2019-11-12 05:36:23,55.97,48.02,37.4,93,90,11.18,mist,0.0,0.0
375,375,Bellevue,DE,2019-11-12 05:36:24,50.05,10.19,39.2,100,75,6.93,broken clouds,0.0,0.0
376,376,Krasnyy Chikoy,RU,2019-11-12 05:36:24,50.36,108.75,6.21,53,100,11.97,overcast clouds,0.0,0.0
377,377,Laguna,BZ,2019-11-12 05:36:24,16.17,-88.94,75.2,100,20,2.51,few clouds,0.0,0.0
378,378,Pasni,PK,2019-11-12 05:36:24,25.26,63.48,79.36,15,0,24.87,clear sky,0.0,0.0
379,379,Pinawa,CA,2019-11-12 05:36:24,50.15,-95.88,-2.31,94,0,5.66,clear sky,0.0,0.0
380,380,Churapcha,RU,2019-11-12 05:36:25,62.0,132.43,-15.99,95,97,4.47,overcast clouds,0.0,0.0
381,381,Kaifeng,CN,2019-11-12 05:36:25,34.8,114.35,73.4,27,41,4.47,scattered clouds,0.0,0.0
382,382,Kurumkan,RU,2019-11-12 05:36:25,54.33,110.32,0.14,76,11,1.3,few clouds,0.0,0.0
383,383,Taoudenni,ML,2019-11-12 05:36:25,22.68,-3.98,60.15,33,0,7.67,clear sky,0.0,0.0
384,384,Bisira,PA,2019-11-12 05:36:25,8.52,-81.71,65.75,96,99,6.71,overcast clouds,0.0,0.0
385,385,Berlevag,NO,2019-11-12 05:36:26,70.86,29.09,17.6,78,95,3.36,overcast clouds,0.0,0.0
386,386,Hollins,US,2019-11-12 05:36:26,37.35,-79.95,59.0,51,90,13.87,light rain,0.0,0.0
387,387,Sur,OM,2019-11-12 05:36:26,22.57,59.53,80.01,30,0,17.27,clear sky,0.0,0.0
388,388,Dolores,UY,2019-11-12 05:36:26,-33.53,-58.22,66.0,83,3,3.0,clear sky,0.0,0.0
389,389,Hualmay,PE,2019-11-12 05:36:26,-11.1,-77.61,61.25,89,98,3.38,overcast clouds,0.0,0.0
390,390,Maragogi,BR,2019-11-12 05:36:26,-9.01,-35.22,78.51,74,67,12.97,light rain,0.19,0.0
391,391,Polis,CY,2019-11-12 05:36:27,35.04,32.42,66.2,34,0,4.7,clear sky,0.0,0.0
392,392,Udachnyy,RU,2019-11-12 05:36:27,66.42,112.4,-29.21,73,0,2.24,clear sky,0.0,0.0
393,393,Atbasar,KZ,2019-11-12 05:36:27,51.81,68.36,27.27,91,100,13.67,overcast clouds,0.0,0.0
394,394,Vardo,US,2019-11-12 05:36:27,39.62,-77.74,60.01,44,40,9.17,scattered clouds,0.0,0.0
395,395,Dingle,PH,2019-11-12 05:36:27,11.0,122.67,77.99,89,100,8.19,moderate rain,3.31,0.0
396,396,Vredendal,ZA,2019-11-12 05:36:27,-31.68,18.49,62.83,69,24,2.01,few clouds,0.0,0.0
397,397,Champerico,MX,2019-11-12 05:36:28,16.38,-93.6,69.8,88,5,3.36,clear sky,0.0,0.0
398,398,Plavsk,RU,2019-11-12 05:36:28,53.71,37.29,43.11,86,89,9.57,overcast clouds,0.0,0.0
399,399,Vostok,RU,2019-11-12 05:36:28,46.45,135.83,22.87,73,66,9.04,broken clouds,0.0,0.0
400,400,Yulara,AU,2019-11-12 05:36:28,-25.24,130.99,95.0,8,0,19.46,clear sky,0.0,0.0
401,401,Te Anau,NZ,2019-11-12 05:36:28,-45.41,167.72,52.84,66,93,8.39,overcast clouds,0.0,0.0
402,402,Karratha,AU,2019-11-12 05:34:13,-20.74,116.85,81.48,64,0,18.41,clear sky,0.0,0.0
403,403,Talaya,RU,2019-11-12 05:36:29,55.79,84.89,10.4,85,90,13.42,light snow,0.0,0.0
404,404,Tabuk,PH,2019-11-12 05:36:29,17.41,121.44,77.27,81,81,14.99,light rain,0.5,0.0
405,405,Poya,NC,2019-11-12 05:36:29,-21.35,165.16,71.82,66,0,16.89,clear sky,0.0,0.0
406,406,Kamina,CD,2019-11-12 05:36:29,-8.74,25.0,68.5,91,100,4.61,overcast clouds,0.0,0.0
407,407,Plattling,DE,2019-11-12 05:36:29,48.78,12.88,39.99,89,100,3.09,light snow,0.0,0.69
408,408,Bubaque,GW,2019-11-12 05:36:30,11.28,-15.83,83.08,64,40,8.1,scattered clouds,0.0,0.0
409,409,Mahon,IE,2019-11-12 05:36:30,51.89,-8.4,39.2,80,20,13.87,few clouds,0.0,0.0
410,410,Ostersund,SE,2019-11-12 05:36:30,63.18,14.64,30.99,92,75,11.41,broken clouds,0.0,0.0
411,411,Mandalgovi,MN,2019-11-12 05:36:30,45.76,106.27,8.38,50,76,23.17,broken clouds,0.0,0.0
412,412,New Iberia,US,2019-11-12 05:33:34,30.0,-91.82,57.2,87,90,19.46,moderate rain,0.0,0.0
413,413,Chiredzi,ZW,2019-11-12 05:36:31,-21.05,31.67,78.73,63,100,6.51,light rain,0.94,0.0
414,414,Concepcion,CO,2019-11-12 05:36:31,9.56,-73.66,73.2,96,100,1.43,moderate rain,3.63,0.0
415,415,Mahabad,IR,2019-11-12 05:36:31,36.77,45.72,52.27,27,0,2.53,clear sky,0.0,0.0
416,416,Isangel,VU,2019-11-12 05:36:31,-19.55,169.27,80.6,54,20,16.11,few clouds,0.0,0.0
417,417,Vao,EE,2019-11-12 05:36:31,59.1,26.19,33.04,95,42,4.76,scattered clouds,0.0,0.0
418,418,Sembakung,ID,2019-11-12 05:36:32,3.82,117.25,87.8,79,40,5.82,scattered clouds,0.0,0.0
419,419,Sola,TZ,2019-11-12 05:36:32,-3.17,33.8,74.8,60,31,8.28,scattered clouds,0.0,0.0
420,420,Vanimo,PG,2019-11-12 05:36:32,-2.67,141.3,83.34,74,100,11.27,overcast clouds,0.0,0.0
421,421,Mizque,BO,2019-11-12 05:36:32,-17.94,-65.34,54.55,84,45,3.47,scattered clouds,0.0,0.0
422,422,Shimanovsk,RU,2019-11-12 05:36:32,52.0,127.67,9.1,65,22,12.33,few clouds,0.0,0.0
423,423,La Libertad,PE,2019-11-12 05:36:32,-16.38,-71.56,55.4,76,75,3.36,broken clouds,0.0,0.0
424,424,Westport,US,2019-11-12 05:33:40,41.14,-73.36,57.99,87,40,6.93,scattered clouds,0.0,0.0
425,425,Umm Lajj,SA,2019-11-12 05:36:33,25.02,37.27,83.48,32,0,2.71,clear sky,0.0,0.0
426,426,Skibbereen,IE,2019-11-12 05:36:33,51.55,-9.27,39.2,80,20,13.87,few clouds,0.0,0.0
427,427,Krasnogvardeyets,RU,2019-11-12 05:36:33,46.16,39.17,56.3,49,13,4.54,few clouds,0.0,0.0
428,428,Bolobo,CD,2019-11-12 05:36:33,-2.17,16.23,71.22,97,100,3.22,light rain,1.75,0.0
429,429,Kundiawa,PG,2019-11-12 05:36:34,-6.02,144.97,60.17,93,100,1.03,heavy intensity rain,14.56,0.0
430,430,Lodja,CD,2019-11-12 05:36:34,-3.52,23.6,71.92,95,95,1.79,light rain,1.0,0.0
431,431,Dickinson,US,2019-11-12 05:32:32,46.88,-102.79,5.0,77,1,11.41,clear sky,0.0,0.0
432,432,Seymchan,RU,2019-11-12 05:36:34,62.93,152.39,-7.66,97,92,1.61,overcast clouds,0.0,0.0
433,433,Ryotsu,JP,2019-11-12 05:36:34,38.08,138.43,60.8,48,20,11.41,few clouds,0.0,0.0
434,434,Luocheng,CN,2019-11-12 05:36:35,28.29,114.55,64.29,46,97,1.88,overcast clouds,0.0,0.0
435,435,Tuatapere,NZ,2019-11-12 05:36:35,-46.13,167.69,57.99,64,100,3.0,overcast clouds,0.0,0.0
436,436,Egvekinot,RU,2019-11-12 05:36:35,66.32,-179.17,21.43,93,90,13.31,overcast clouds,0.0,0.0
437,437,Boralday,KZ,2019-11-12 05:36:35,43.36,76.86,37.4,74,40,2.24,scattered clouds,0.0,0.0
438,438,Lufilufi,WS,2019-11-12 05:36:35,-13.87,-171.6,82.4,78,40,3.36,scattered clouds,0.0,0.0
439,439,Nuevo Imperial,PE,2019-11-12 05:36:35,-13.08,-76.32,61.97,93,74,5.32,broken clouds,0.0,0.0
440,440,Gulu,UG,2019-11-12 05:36:36,2.77,32.3,75.02,76,95,2.08,overcast clouds,0.0,0.0
441,441,Marzuq,YE,2019-11-12 05:36:36,14.4,46.47,71.35,55,0,4.65,clear sky,0.0,0.0
442,442,Cullera,ES,2019-11-12 05:36:36,39.16,-0.25,57.2,33,20,21.92,few clouds,0.0,0.0
443,443,Ayan,IR,2019-11-12 05:36:36,38.23,44.7,42.12,21,0,1.23,clear sky,0.0,0.0
444,444,Alakurtti,RU,2019-11-12 05:36:36,66.96,30.34,18.0,89,100,3.0,light snow,0.0,1.5
445,445,Mirandopolis,BR,2019-11-12 05:36:37,-21.13,-51.1,70.57,87,65,10.02,light rain,1.19,0.0
446,446,Tekkali,IN,2019-11-12 05:36:37,18.62,84.23,84.87,55,0,5.39,clear sky,0.0,0.0
447,447,Kobryn,BY,2019-11-12 05:36:37,52.21,24.36,35.6,93,30,8.95,mist,0.0,0.0
448,448,Ville-Marie,CA,2019-11-12 05:36:37,47.33,-79.44,-0.41,84,75,9.17,light snow,0.0,0.0
449,449,Sitka,US,2019-11-12 05:36:37,37.17,-99.65,7.0,74,0,8.23,clear sky,0.0,0.0
450,450,Natal,BR,2019-11-12 05:36:38,-5.81,-35.21,75.2,88,40,3.36,scattered clouds,0.0,0.0
451,451,West Bay,CA,2019-11-12 05:36:38,49.34,-123.21,48.99,93,90,10.29,light rain,0.0,0.0
452,452,Almeirim,BR,2019-11-12 05:36:38,-1.53,-52.58,78.1,78,32,5.19,scattered clouds,0.0,0.0
453,453,Gushikawa,JP,2019-11-12 05:36:38,26.35,127.87,77.0,50,75,10.0,broken clouds,0.0,0.0
454,454,Labuhan,ID,2019-11-12 05:36:38,-2.54,115.51,89.78,58,59,4.27,light rain,2.56,0.0
455,455,Shumskiy,RU,2019-11-12 05:36:39,54.83,99.13,9.28,60,100,12.01,overcast clouds,0.0,0.0
456,456,Porto Torres,IT,2019-11-12 05:36:40,40.84,8.4,57.2,93,20,5.82,light rain,0.0,0.0
457,457,Conceicao Da Barra,BR,2019-11-12 05:36:40,-18.59,-39.73,78.12,83,86,10.54,light rain,0.38,0.0
458,458,Wufeng,CN,2019-11-12 05:36:40,27.44,104.87,55.02,88,100,4.0,overcast clouds,0.0,0.0
459,459,Novopavlovka,KG,2019-11-12 05:36:40,42.87,74.49,30.2,100,40,2.24,mist,0.0,0.0
460,460,Caala,AO,2019-11-12 05:36:40,-12.85,15.56,63.25,85,99,1.1,overcast clouds,0.0,0.0
461,461,Huarmey,PE,2019-11-12 05:36:41,-10.07,-78.15,62.53,85,99,2.51,overcast clouds,0.0,0.0
462,462,Yaan,NG,2019-11-12 05:36:41,7.38,8.57,74.86,89,91,5.17,overcast clouds,0.0,0.0
463,463,Canakkale,TR,2019-11-12 05:36:41,40.15,26.41,53.6,11,5,5.82,clear sky,0.0,0.0
464,464,Emba,CY,2019-11-12 05:36:41,34.81,32.42,71.6,34,0,4.7,clear sky,0.0,0.0
465,465,Awjilah,LY,2019-11-12 05:36:41,29.14,21.3,72.03,30,100,23.24,overcast clouds,0.0,0.0
466,466,Neryungri,RU,2019-11-12 05:36:41,56.66,124.71,-9.98,92,100,11.9,light snow,0.0,0.19
467,467,Bullhead City,US,2019-11-12 05:32:07,35.15,-114.57,75.2,14,1,18.34,clear sky,0.0,0.0
468,468,Baykit,RU,2019-11-12 05:36:42,61.68,96.39,0.1,92,100,4.72,light snow,0.0,0.25
469,469,Bud,NO,2019-11-12 05:36:42,62.91,6.91,24.8,73,53,11.41,broken clouds,0.0,0.0
470,470,Liling,CN,2019-11-12 05:36:42,27.65,113.49,77.0,47,0,4.47,clear sky,0.0,0.0
471,471,Encruzilhada Do Sul,BR,2019-11-12 05:36:43,-30.54,-52.52,59.61,96,22,7.05,few clouds,0.0,0.0
472,472,Namibe,AO,2019-11-12 05:36:43,-15.19,12.15,73.74,75,100,6.89,overcast clouds,0.0,0.0
473,473,Laela,TZ,2019-11-12 05:36:43,-8.57,32.05,72.09,51,73,7.94,broken clouds,0.0,0.0
474,474,Nanortalik,GL,2019-11-12 05:36:43,60.14,-45.24,33.46,75,100,17.78,snow,0.0,2.44
475,475,Galle,GN,2019-11-12 05:36:44,10.08,-12.83,69.98,97,14,2.53,few clouds,0.0,0.0
476,476,Honiara,SB,2019-11-12 05:36:44,-9.43,159.96,87.8,62,75,5.82,broken clouds,0.0,0.0
477,477,Orlik,PL,2019-11-12 05:36:44,53.95,17.74,37.99,87,75,5.82,mist,0.0,0.0
478,478,Matamoros,US,2019-11-12 05:36:44,25.87,-97.51,55.99,81,90,21.92,moderate rain,0.0,0.0
479,479,Kommunar,RU,2019-11-12 05:36:44,59.62,30.39,35.6,93,90,15.66,light intensity drizzle,0.0,0.0
480,480,Daman,IN,2019-11-12 05:36:44,20.42,72.83,89.2,44,0,5.41,clear sky,0.0,0.0
481,481,Tulle,FR,2019-11-12 05:36:45,45.27,1.77,39.0,100,75,2.37,light rain,0.25,0.0
482,482,Saint Anthony,US,2019-11-12 05:36:45,43.97,-111.68,21.99,57,1,3.36,clear sky,0.0,0.0
483,483,Constantine,DZ,2019-11-12 05:36:45,36.36,6.61,44.6,93,90,9.17,moderate rain,0.0,0.0
484,484,Pisco,PE,2019-11-12 05:36:45,-13.71,-76.2,64.4,88,75,10.29,broken clouds,0.0,0.0
485,485,Paso De Carrasco,UY,2019-11-12 05:36:45,-34.86,-56.05,63.0,77,0,6.93,clear sky,0.0,0.0
486,486,Dennery,LC,2019-11-12 05:32:12,13.9,-60.89,82.4,78,75,19.46,broken clouds,0.0,0.0
487,487,Ampanihy,MG,2019-11-12 05:36:46,-24.69,44.75,81.88,54,79,12.01,broken clouds,0.0,0.0
488,488,Amarante Do Maranhao,BR,2019-11-12 05:36:46,-5.57,-46.74,72.82,85,2,1.83,clear sky,0.0,0.0
489,489,Mayumba,GA,2019-11-12 05:36:46,-3.44,10.65,78.76,84,100,6.73,moderate rain,5.56,0.0
490,490,Mundo Nuevo,CL,2019-11-12 05:36:46,-32.72,-71.41,51.8,100,0,3.36,clear sky,0.0,0.0
491,491,Port-Cartier,CA,2019-11-12 05:36:47,50.03,-66.88,14.0,78,90,4.7,overcast clouds,0.0,0.0
492,492,Severo-Kurilsk,RU,2019-11-12 05:36:47,50.68,156.12,31.51,88,58,1.57,broken clouds,0.0,0.0
493,493,Babu,CN,2019-11-12 05:36:47,23.23,104.89,73.53,53,1,4.94,clear sky,0.0,0.0
494,494,Krasnogorsk,RU,2019-11-12 05:36:47,55.82,37.34,45.0,93,90,15.66,light rain,0.0,0.0
495,495,Salina,US,2019-11-12 05:34:00,38.84,-97.61,12.0,72,1,6.93,clear sky,0.0,0.0
496,496,Road Town,VG,2019-11-12 05:34:50,18.42,-64.62,81.0,74,75,6.93,broken clouds,0.0,0.0
497,497,Piacabucu,BR,2019-11-12 05:36:48,-10.41,-36.43,76.17,80,95,9.28,overcast clouds,0.0,0.0
498,498,Tagusao,PH,2019-11-12 05:36:48,9.19,117.81,84.9,69,97,7.47,light rain,0.31,0.0
499,499,Bayir,TR,2019-11-12 05:36:48,37.27,28.22,53.6,81,2,4.7,clear sky,0.0,0.0
500,500,Oromocto,CA,2019-11-12 05:36:48,45.85,-66.47,25.0,92,90,10.29,light snow,0.0,0.0
501,501,Port Hardy,CA,2019-11-12 05:36:49,50.7,-127.42,48.2,87,90,17.22,overcast clouds,0.0,0.0
502,502,Toppenish,US,2019-11-12 05:36:49,46.38,-120.31,36.0,51,1,3.36,clear sky,0.0,0.0
503,503,Padang,ID,2019-11-12 05:36:49,-0.92,100.36,73.27,89,98,3.18,light rain,1.19,0.0
504,504,Parrita,CR,2019-11-12 05:36:49,9.52,-84.33,71.6,83,75,5.82,broken clouds,0.0,0.0
505,505,Basco,US,2019-11-12 05:36:49,40.33,-91.2,14.0,72,1,12.75,clear sky,0.0,0.0
506,506,Price,US,2019-11-12 05:36:49,39.6,-110.81,35.6,51,1,5.82,clear sky,0.0,0.0
507,507,Buala,SB,2019-11-12 05:36:50,-8.15,159.59,82.54,77,62,8.19,light rain,1.0,0.0
508,508,Kotagiri,IN,2019-11-12 05:36:50,11.42,76.87,80.6,69,40,4.7,haze,0.0,0.0
509,509,Surt,LY,2019-11-12 05:36:50,31.21,16.59,59.11,48,100,11.25,overcast clouds,0.0,0.0
510,510,Tokoname,JP,2019-11-12 05:36:50,34.9,136.84,69.8,37,20,21.92,few clouds,0.0,0.0
511,511,Martin,US,2019-11-12 05:35:56,36.34,-88.85,27.0,73,100,12.75,light snow,0.0,0.13
512,512,Quelimane,MZ,2019-11-12 05:36:51,-17.88,36.89,80.6,83,40,5.82,scattered clouds,0.0,0.0
513,513,Kharp,RU,2019-11-12 05:36:51,66.82,65.8,-8.27,93,73,8.23,broken clouds,0.0,0.0
514,514,Haizhou,CN,2019-11-12 05:36:51,34.58,119.13,73.44,21,59,9.48,broken clouds,0.0,0.0
515,515,Manaus,BR,2019-11-12 05:36:51,-3.13,-59.98,77.0,88,20,9.17,few clouds,0.0,0.0
516,516,Caravelas,BR,2019-11-12 05:36:51,-17.73,-39.27,69.64,96,12,2.48,few clouds,0.0,0.0
517,517,Nouadhibou,MR,2019-11-12 05:36:51,20.93,-17.03,64.4,77,61,19.46,broken clouds,0.0,0.0
518,518,Kununurra,AU,2019-11-12 05:36:52,-15.77,128.74,105.8,14,15,11.41,few clouds,0.0,0.0
519,519,Palmer,AU,2019-11-12 05:36:52,-34.85,139.16,64.0,44,75,20.8,broken clouds,0.0,0.0
520,520,Wilhelmshaven,DE,2019-11-12 05:36:52,53.53,8.11,44.01,81,75,16.11,broken clouds,0.0,0.0
521,521,Mecca,SA,2019-11-12 05:33:30,21.43,39.83,81.21,54,0,4.88,clear sky,0.0,0.0
522,522,Ariquemes,BR,2019-11-12 05:36:52,-9.91,-63.03,72.81,97,100,2.21,overcast clouds,0.0,0.0
523,523,Montoro,ES,2019-11-12 05:36:53,38.02,-4.38,50.0,87,90,2.24,overcast clouds,0.0,0.0
524,524,Brekstad,NO,2019-11-12 05:36:53,63.69,9.67,28.0,73,23,11.41,few clouds,0.0,0.0
525,525,Shimoda,JP,2019-11-12 05:34:55,34.7,138.93,69.8,60,20,6.93,few clouds,0.0,0.0
526,526,Pangai,TO,2019-11-12 05:36:53,-19.8,-174.35,77.0,78,75,10.29,broken clouds,0.0,0.0
527,527,Cumbum,IN,2019-11-12 05:32:31,15.58,79.11,82.26,63,8,7.87,light rain,0.31,0.0
528,528,Tayzhina,RU,2019-11-12 05:36:54,53.67,87.44,14.41,66,100,4.74,overcast clouds,0.0,0.0
529,529,Baruun-Urt,MN,2019-11-12 05:36:54,46.68,113.28,17.15,83,100,13.82,light snow,0.0,0.37
530,530,Xingyi,CN,2019-11-12 05:36:54,24.19,102.82,70.88,63,24,8.01,light rain,0.13,0.0
531,531,Kangaatsiaq,GL,2019-11-12 05:36:54,68.31,-53.46,35.73,58,93,22.75,overcast clouds,0.0,0.0
532,532,Mezen,RU,2019-11-12 05:36:54,65.85,44.24,13.66,88,100,13.42,overcast clouds,0.0,0.0
533,533,Lagos,NG,2019-11-12 05:32:03,6.46,3.39,75.2,94,20,2.24,few clouds,0.0,0.0
534,534,Salalah,OM,2019-11-12 05:36:55,17.01,54.1,82.4,58,0,3.36,clear sky,0.0,0.0
535,535,Ucluelet,CA,2019-11-12 05:36:55,48.94,-125.55,50.0,92,100,3.96,heavy intensity rain,0.0,0.0
536,536,Bereda,ES,2019-11-12 05:36:55,43.27,-7.54,52.0,93,75,9.17,broken clouds,0.0,0.0
537,537,Ovsyanka,RU,2019-11-12 05:36:55,53.58,126.91,7.61,75,97,9.1,overcast clouds,0.0,0.0
538,538,Hanmer Springs,NZ,2019-11-12 05:36:56,-42.52,172.83,54.23,54,20,1.07,few clouds,0.0,0.0
539,539,Chaumont,FR,2019-11-12 05:36:56,48.11,5.14,41.0,86,90,9.17,overcast clouds,0.0,0.0
540,540,Kisangani,CD,2019-11-12 05:36:56,0.52,25.21,70.79,99,100,4.34,moderate rain,5.75,0.0
541,541,Chapais,CA,2019-11-12 05:36:56,49.78,-74.86,5.0,92,90,3.36,light snow,0.0,0.0
542,542,Atasu,KZ,2019-11-12 05:36:56,48.68,71.64,33.69,31,7,12.66,clear sky,0.0,0.0
543,543,Georgiyevka,RU,2019-11-12 05:36:57,52.25,40.45,44.1,96,58,7.0,broken clouds,0.0,0.0
544,544,Yorkton,CA,2019-11-12 05:36:57,51.21,-102.46,5.0,77,1,12.75,clear sky,0.0,0.0
545,545,Capesterre-Belle-Eau,GP,2019-11-12 05:36:57,16.04,-61.57,77.0,83,20,5.82,few clouds,0.0,0.0
546,546,Poquoson,US,2019-11-12 05:36:57,37.12,-76.35,59.0,51,1,13.87,clear sky,0.0,0.0
547,547,Shingu,JP,2019-11-12 05:36:57,33.72,135.99,69.8,46,20,12.75,few clouds,0.0,0.0
548,548,Myitkyina,MM,2019-11-12 05:36:58,25.38,97.4,82.96,58,74,2.84,broken clouds,0.0,0.0
549,549,Hailey,US,2019-11-12 05:36:58,43.52,-114.32,30.2,74,5,6.93,clear sky,0.0,0.0
550,550,Bafq,IR,2019-11-12 05:35:24,31.6,55.4,52.92,15,0,3.38,clear sky,0.0,0.0
551,551,Brae,GB,2019-11-12 05:36:58,60.4,-1.35,41.0,69,55,21.92,broken clouds,0.0,0.0
552,552,Geraldton,CA,2019-11-12 05:36:58,49.72,-86.95,-0.41,70,90,4.7,overcast clouds,0.0,0.0
553,553,Havelock,US,2019-11-12 05:33:13,34.88,-76.9,66.2,72,75,6.93,broken clouds,0.0,0.0
554,554,Tilichiki,RU,2019-11-12 05:36:59,60.47,166.1,27.46,95,99,4.12,light snow,0.0,0.31
555,555,Esso,RU,2019-11-12 05:36:59,55.93,158.7,7.79,93,14,2.48,few clouds,0.0,0.0
556,556,Lavrentiya,RU,2019-11-12 05:36:59,65.58,-170.99,33.67,91,100,15.05,overcast clouds,0.0,0.0
557,557,Wagar,US,2019-11-12 05:36:59,31.44,-87.99,66.0,89,100,3.38,light rain,0.88,0.0
558,558,Evans,US,2019-11-12 05:36:59,40.38,-104.69,21.2,85,1,3.36,clear sky,0.0,0.0
559,559,Alta Floresta,BR,2019-11-12 05:36:59,-9.87,-56.08,70.45,95,95,2.8,overcast clouds,0.0,0.0
560,560,Denpasar,ID,2019-11-12 05:33:54,-8.65,115.22,89.6,62,20,8.05,few clouds,0.0,0.0
561,561,Goundam,ML,2019-11-12 05:37:00,16.42,-3.66,66.74,9,0,12.39,clear sky,0.0,0.0
562,562,Mossendjo,CG,2019-11-12 05:37:00,-2.95,12.72,72.37,96,100,0.89,light rain,0.63,0.0
563,563,Sangar,RU,2019-11-12 05:37:00,63.92,127.47,-14.7,87,83,9.24,broken clouds,0.0,0.0
564,564,Pyaozerskiy,RU,2019-11-12 05:37:00,65.83,31.17,26.13,89,100,14.63,light snow,0.0,0.56
565,565,College,US,2019-11-12 05:37:01,64.86,-147.8,24.8,79,90,3.36,overcast clouds,0.0,0.0
566,566,Nauchnyy Gorodok,RU,2019-11-12 05:37:01,53.42,83.52,10.4,85,75,13.42,broken clouds,0.0,0.0
567,567,Kapit,MY,2019-11-12 05:37:01,2.02,112.94,81.9,92,91,3.65,light rain,2.31,0.0
568,568,The Valley,AI,2019-11-12 05:37:01,18.22,-63.06,80.6,74,50,11.41,light intensity shower rain,0.0,0.0
569,569,Aksu,KZ,2019-11-12 05:37:01,52.04,76.93,28.4,58,90,17.9,overcast clouds,0.0,0.0
570,570,Ponta Delgada,PT,2019-11-12 05:37:01,37.73,-25.67,59.0,87,75,3.36,broken clouds,0.0,0.0
571,571,Warrenton,ZA,2019-11-12 05:37:02,-28.11,24.85,73.76,47,67,11.41,broken clouds,0.0,0.0
572,572,Taltal,CL,2019-11-12 05:33:53,-25.41,-70.49,52.75,86,77,2.33,broken clouds,0.0,0.0
